{
"type": "FeatureCollection",
"name": "hostel",
"crs": { "type": "name", "properties": { "name": "urn:ogc:def:crs:OGC:1.3:CRS84" } },
"features": [
{ "type": "Feature", "properties": { "name": "Общежитие ЕЭТК", "capacity": 300 }, "geometry": { "type": "Point", "coordinates": [ 60.6155153, 56.8947558 ] } },
{ "type": "Feature", "properties": { "name": "Лайт", "capacity": 300 }, "geometry": { "type": "Point", "coordinates": [ 60.6223901, 56.8088164 ] } },
{ "type": "Feature", "properties": { "name": "Екатеринбург ЕА", "capacity": 300 }, "geometry": { "type": "Point", "coordinates": [ 60.6207274, 56.8090895 ] } },
{ "type": "Feature", "properties": { "name": "Комфорт", "capacity": 300 }, "geometry": { "type": "Point", "coordinates": [ 60.6345192, 56.8407886 ] } },
{ "type": "Feature", "properties": { "name": "Like", "capacity": 300 }, "geometry": { "type": "Point", "coordinates": [ 60.6147915, 56.8261834 ] } },
{ "type": "Feature", "properties": { "name": "Аметист-СВ Хостел", "capacity": 300 }, "geometry": { "type": "Point", "coordinates": [ 60.5584403, 56.8501816 ] } },
{ "type": "Feature", "properties": { "name": "Loft in centre", "capacity": 300 }, "geometry": { "type": "Point", "coordinates": [ 60.5901524, 56.8378365 ] } },
{ "type": "Feature", "properties": { "name": "Eightrays", "capacity": 300 }, "geometry": { "type": "Point", "coordinates": [ 60.6181431, 56.849158 ] } },
{ "type": "Feature", "properties": { "name": "DoBeDo Hostel", "capacity": 300 }, "geometry": { "type": "Point", "coordinates": [ 60.6250931, 56.8402914 ] } },
{ "type": "Feature", "properties": { "name": "Like hostel", "capacity": 300 }, "geometry": { "type": "Point", "coordinates": [ 60.5844576, 56.8533485 ] } },
{ "type": "Feature", "properties": { "name": "B&B Hostel", "capacity": 300 }, "geometry": { "type": "Point", "coordinates": [ 60.6099415, 56.835786 ] } },
{ "type": "Feature", "properties": { "name": "B&B Hostel", "capacity": 300 }, "geometry": { "type": "Point", "coordinates": [ 60.6091624, 56.8385703 ] } },
{ "type": "Feature", "properties": { "name": "Хостелы Рус-Екатеринбург", "capacity": 300 }, "geometry": { "type": "Point", "coordinates": [ 60.5967048, 56.839789 ] } },
{ "type": "Feature", "properties": { "name": "Arthostels", "capacity": 300 }, "geometry": { "type": "Point", "coordinates": [ 60.5969918, 56.8343778 ] } },
{ "type": "Feature", "properties": { "name": null, "capacity": 300 }, "geometry": { "type": "Point", "coordinates": [ 60.6173167, 56.8525156 ] } },
{ "type": "Feature", "properties": { "name": "Аврора", "capacity": 300 }, "geometry": { "type": "Point", "coordinates": [ 60.6436438, 56.842491 ] } },
{ "type": "Feature", "properties": { "name": "Оптимист", "capacity": 300 }, "geometry": { "type": "Point", "coordinates": [ 60.5816433, 56.8313082 ] } },
{ "type": "Feature", "properties": { "name": "Дом", "capacity": 300 }, "geometry": { "type": "Point", "coordinates": [ 60.5400001, 56.868011 ] } },
{ "type": "Feature", "properties": { "name": null, "capacity": 300 }, "geometry": { "type": "Point", "coordinates": [ 60.6004793, 56.8234974 ] } },
{ "type": "Feature", "properties": { "name": "ЛаKшеРи project", "capacity": 300 }, "geometry": { "type": "Point", "coordinates": [ 60.6196605, 56.8297107 ] } },
{ "type": "Feature", "properties": { "name": "Капсульный отель", "capacity": 300 }, "geometry": { "type": "Point", "coordinates": [ 60.6036532, 56.8539469 ] } },
{ "type": "Feature", "properties": { "name": "Летучий олень", "capacity": 300 }, "geometry": { "type": "Point", "coordinates": [ 60.5897188, 56.8335688 ] } },
{ "type": "Feature", "properties": { "name": "Red Star", "capacity": 300 }, "geometry": { "type": "Point", "coordinates": [ 60.6092736, 56.8298171 ] } },
{ "type": "Feature", "properties": { "name": "Чемпион", "capacity": 300 }, "geometry": { "type": "Point", "coordinates": [ 60.5698626, 56.8357732 ] } },
{ "type": "Feature", "properties": { "name": "DoBeDo Hostel", "capacity": 300 }, "geometry": { "type": "Point", "coordinates": [ 60.6244747, 56.8402252 ] } },
{ "type": "Feature", "properties": { "name": "Pushkin Street", "capacity": 300 }, "geometry": { "type": "Point", "coordinates": [ 60.609621, 56.8357993 ] } },
{ "type": "Feature", "properties": { "name": "Героев России", "capacity": 300 }, "geometry": { "type": "Point", "coordinates": [ 60.5784028, 56.8550857 ] } },
{ "type": "Feature", "properties": { "name": "Хостел 1", "capacity": 300 }, "geometry": { "type": "Point", "coordinates": [ 60.602906, 56.8940686 ] } },
{ "type": "Feature", "properties": { "name": "Вдвоём", "capacity": 300 }, "geometry": { "type": "Point", "coordinates": [ 60.5989196, 56.8916749 ] } },
{ "type": "Feature", "properties": { "name": "Хостел 1", "capacity": 300 }, "geometry": { "type": "Point", "coordinates": [ 60.5952018, 56.8870989 ] } },
{ "type": "Feature", "properties": { "name": "ВПЕЧАТЛЕНИЯ", "capacity": 300 }, "geometry": { "type": "Point", "coordinates": [ 60.614492, 56.84021 ] } },
{ "type": "Feature", "properties": { "name": "roomshostel", "capacity": 300 }, "geometry": { "type": "Point", "coordinates": [ 60.6025164, 56.8315914 ] } },
{ "type": "Feature", "properties": { "name": "Арена хостел", "capacity": 300 }, "geometry": { "type": "Point", "coordinates": [ 60.5687872, 56.8347757 ] } },
{ "type": "Feature", "properties": { "name": "Пенаты", "capacity": 300 }, "geometry": { "type": "Point", "coordinates": [ 60.6080241, 56.8581904 ] } },
{ "type": "Feature", "properties": { "name": "Space", "capacity": 300 }, "geometry": { "type": "Point", "coordinates": [ 60.597024, 56.8328664 ] } },
{ "type": "Feature", "properties": { "name": "Никольский", "capacity": 300 }, "geometry": { "type": "Point", "coordinates": [ 60.6150296, 56.8314491 ] } },
{ "type": "Feature", "properties": { "name": "Глобус", "capacity": 300 }, "geometry": { "type": "Point", "coordinates": [ 60.6174195, 56.7901439 ] } },
{ "type": "Feature", "properties": { "name": "Ю-Хостел", "capacity": 300 }, "geometry": { "type": "Point", "coordinates": [ 60.5521998, 56.8237034 ] } },
{ "type": "Feature", "properties": { "name": "Хостел \"Как Дома\"", "capacity": 300 }, "geometry": { "type": "Point", "coordinates": [ 60.6785075, 56.8349843 ] } },
{ "type": "Feature", "properties": { "name": "ЕТХМ", "capacity": 300 }, "geometry": { "type": "Point", "coordinates": [ 60.704778703228286, 56.75200615 ] } }
]
}
