{
"type": "FeatureCollection",
"name": "household",
"crs": { "type": "name", "properties": { "name": "urn:ogc:def:crs:OGC:1.3:CRS84" } },
"features": [
{ "type": "Feature", "properties": { "name": "Ягуар", "shop": "dry_cleaning", "capacity": 300 }, "geometry": { "type": "Point", "coordinates": [ 60.5555611, 56.8035386 ] } },
{ "type": "Feature", "properties": { "name": "Специма", "shop": "dry_cleaning", "capacity": 300 }, "geometry": { "type": "Point", "coordinates": [ 60.6763438, 56.8340976 ] } },
{ "type": "Feature", "properties": { "name": "Ремонт обуви", "shop": "shoe_repair", "capacity": 300 }, "geometry": { "type": "Point", "coordinates": [ 60.6304356, 56.8224219 ] } },
{ "type": "Feature", "properties": { "name": null, "shop": "dry_cleaning", "capacity": 300 }, "geometry": { "type": "Point", "coordinates": [ 60.5045278, 56.8227261 ] } },
{ "type": "Feature", "properties": { "name": null, "shop": "dry_cleaning", "capacity": 300 }, "geometry": { "type": "Point", "coordinates": [ 60.6055714, 56.8969856 ] } },
{ "type": "Feature", "properties": { "name": "Ремонт обуви", "shop": "shoe_repair", "capacity": 300 }, "geometry": { "type": "Point", "coordinates": [ 60.6615016, 56.8487605 ] } },
{ "type": "Feature", "properties": { "name": "Айсберг", "shop": "dry_cleaning", "capacity": 300 }, "geometry": { "type": "Point", "coordinates": [ 60.66158, 56.8487446 ] } },
{ "type": "Feature", "properties": { "name": "Евролайн", "shop": "dry_cleaning", "capacity": 300 }, "geometry": { "type": "Point", "coordinates": [ 60.6478906, 56.839527 ] } },
{ "type": "Feature", "properties": { "name": "Ремонт обуви", "shop": "shoe_repair", "capacity": 300 }, "geometry": { "type": "Point", "coordinates": [ 60.6514721, 56.8387696 ] } },
{ "type": "Feature", "properties": { "name": null, "shop": "shoe_repair", "capacity": 300 }, "geometry": { "type": "Point", "coordinates": [ 60.6779579, 56.8408856 ] } },
{ "type": "Feature", "properties": { "name": "Идиллия", "shop": "dry_cleaning", "capacity": 300 }, "geometry": { "type": "Point", "coordinates": [ 60.5176001, 56.790419 ] } },
{ "type": "Feature", "properties": { "name": "Лавандерия-Н", "shop": "dry_cleaning", "capacity": 300 }, "geometry": { "type": "Point", "coordinates": [ 60.6040866, 56.849676 ] } },
{ "type": "Feature", "properties": { "name": "Снежинка", "shop": "laundry", "capacity": 300 }, "geometry": { "type": "Point", "coordinates": [ 60.5580181, 56.8225793 ] } },
{ "type": "Feature", "properties": { "name": "Ателье Соболь", "shop": "tailor", "capacity": 300 }, "geometry": { "type": "Point", "coordinates": [ 60.6220226, 56.8101442 ] } },
{ "type": "Feature", "properties": { "name": "Чистoff", "shop": "laundry", "capacity": 300 }, "geometry": { "type": "Point", "coordinates": [ 60.5180313, 56.7893327 ] } },
{ "type": "Feature", "properties": { "name": "Ваш портной", "shop": "tailor", "capacity": 300 }, "geometry": { "type": "Point", "coordinates": [ 60.5507391, 56.830999 ] } },
{ "type": "Feature", "properties": { "name": null, "shop": "tailor", "capacity": 300 }, "geometry": { "type": "Point", "coordinates": [ 60.562637, 56.8332733 ] } },
{ "type": "Feature", "properties": { "name": "Мистер Ландри", "shop": "laundry", "capacity": 300 }, "geometry": { "type": "Point", "coordinates": [ 60.5246576, 56.7908413 ] } },
{ "type": "Feature", "properties": { "name": null, "shop": "shoe_repair", "capacity": 300 }, "geometry": { "type": "Point", "coordinates": [ 60.5517096, 56.8315415 ] } },
{ "type": "Feature", "properties": { "name": "Веретено", "shop": "tailor", "capacity": 300 }, "geometry": { "type": "Point", "coordinates": [ 60.551769, 56.833126 ] } },
{ "type": "Feature", "properties": { "name": "Ремонт обуви", "shop": "shoe_repair", "capacity": 300 }, "geometry": { "type": "Point", "coordinates": [ 60.5596084, 56.8385496 ] } },
{ "type": "Feature", "properties": { "name": "LeTkach", "shop": "tailor", "capacity": 300 }, "geometry": { "type": "Point", "coordinates": [ 60.519512, 56.79302 ] } },
{ "type": "Feature", "properties": { "name": "Мистер Ландри", "shop": "laundry", "capacity": 300 }, "geometry": { "type": "Point", "coordinates": [ 60.5194822, 56.793037 ] } },
{ "type": "Feature", "properties": { "name": "Мистер Ландри", "shop": "dry_cleaning", "capacity": 300 }, "geometry": { "type": "Point", "coordinates": [ 60.5517874, 56.8330892 ] } },
{ "type": "Feature", "properties": { "name": null, "shop": "dry_cleaning", "capacity": 300 }, "geometry": { "type": "Point", "coordinates": [ 60.5528876, 56.8327929 ] } },
{ "type": "Feature", "properties": { "name": "Новость", "shop": "laundry", "capacity": 300 }, "geometry": { "type": "Point", "coordinates": [ 60.5860151, 56.8333 ] } },
{ "type": "Feature", "properties": { "name": null, "shop": "laundry", "capacity": 300 }, "geometry": { "type": "Point", "coordinates": [ 60.568762, 56.8843814 ] } },
{ "type": "Feature", "properties": { "name": null, "shop": "tailor", "capacity": 300 }, "geometry": { "type": "Point", "coordinates": [ 60.5745077, 56.8847206 ] } },
{ "type": "Feature", "properties": { "name": null, "shop": "shoe_repair", "capacity": 300 }, "geometry": { "type": "Point", "coordinates": [ 60.6646816, 56.8281623 ] } },
{ "type": "Feature", "properties": { "name": "Ателье", "shop": null, "capacity": 300 }, "geometry": { "type": "Point", "coordinates": [ 60.5169551, 56.7917744 ] } },
{ "type": "Feature", "properties": { "name": "Мастерица-люкс", "shop": null, "capacity": 300 }, "geometry": { "type": "Point", "coordinates": [ 60.5644284, 56.8484273 ] } },
{ "type": "Feature", "properties": { "name": null, "shop": "craft", "capacity": 300 }, "geometry": { "type": "Point", "coordinates": [ 60.6270328, 56.8972911 ] } },
{ "type": "Feature", "properties": { "name": null, "shop": "tailor", "capacity": 300 }, "geometry": { "type": "Point", "coordinates": [ 60.6799286, 56.8357789 ] } },
{ "type": "Feature", "properties": { "name": "Военвед", "shop": null, "capacity": 300 }, "geometry": { "type": "Point", "coordinates": [ 60.5809836, 56.845235 ] } },
{ "type": "Feature", "properties": { "name": null, "shop": "tailor", "capacity": 300 }, "geometry": { "type": "Point", "coordinates": [ 60.5912116, 56.8864624 ] } },
{ "type": "Feature", "properties": { "name": null, "shop": "tailor", "capacity": 300 }, "geometry": { "type": "Point", "coordinates": [ 60.5447205, 56.8277766 ] } },
{ "type": "Feature", "properties": { "name": "Мастерица", "shop": null, "capacity": 300 }, "geometry": { "type": "Point", "coordinates": [ 60.5096511, 56.8856614 ] } },
{ "type": "Feature", "properties": { "name": "Модельфо", "shop": null, "capacity": 300 }, "geometry": { "type": "Point", "coordinates": [ 60.5849207, 56.81533 ] } },
{ "type": "Feature", "properties": { "name": null, "shop": "laundry", "capacity": 300 }, "geometry": { "type": "Point", "coordinates": [ 60.6369073, 56.8450197 ] } },
{ "type": "Feature", "properties": { "name": "Iceberg", "shop": "dry_cleaning", "capacity": 300 }, "geometry": { "type": "Point", "coordinates": [ 60.6267361, 56.8402378 ] } },
{ "type": "Feature", "properties": { "name": "Da", "shop": null, "capacity": 300 }, "geometry": { "type": "Point", "coordinates": [ 60.635165, 56.85401 ] } },
{ "type": "Feature", "properties": { "name": "Модлен", "shop": null, "capacity": 300 }, "geometry": { "type": "Point", "coordinates": [ 60.6288269, 56.8581894 ] } },
{ "type": "Feature", "properties": { "name": "Лина", "shop": null, "capacity": 300 }, "geometry": { "type": "Point", "coordinates": [ 60.6344341, 56.8327666 ] } },
{ "type": "Feature", "properties": { "name": "iClean", "shop": "dry_cleaning", "capacity": 300 }, "geometry": { "type": "Point", "coordinates": [ 60.635145, 56.887521 ] } },
{ "type": "Feature", "properties": { "name": "Ремонт Обуви", "shop": "shoe_repair", "capacity": 300 }, "geometry": { "type": "Point", "coordinates": [ 60.5760786, 56.8213632 ] } },
{ "type": "Feature", "properties": { "name": "Швейное ателье Лемар в ТЦ КомсоМолл", "shop": "tailor", "capacity": 300 }, "geometry": { "type": "Point", "coordinates": [ 60.6712061, 56.8295317 ] } },
{ "type": "Feature", "properties": { "name": null, "shop": "tailor", "capacity": 300 }, "geometry": { "type": "Point", "coordinates": [ 60.623455, 56.7966548 ] } },
{ "type": "Feature", "properties": { "name": "Швейное ателье Лемар в ТЦ Ботаника Молл", "shop": "tailor", "capacity": 300 }, "geometry": { "type": "Point", "coordinates": [ 60.6129214, 56.796686 ] } },
{ "type": "Feature", "properties": { "name": "Швейное ателье Лемар на улице Патриотов", "shop": "tailor", "capacity": 300 }, "geometry": { "type": "Point", "coordinates": [ 60.6707925, 56.7822648 ] } },
{ "type": "Feature", "properties": { "name": "Швейное ателье Лемар на улице Бабушкина", "shop": "tailor", "capacity": 300 }, "geometry": { "type": "Point", "coordinates": [ 60.6320839, 56.8820686 ] } },
{ "type": "Feature", "properties": { "name": "Швейное ателье Лемар в ТЦ Парк Хаус на улице Сулимова, 50", "shop": "tailor", "capacity": 300 }, "geometry": { "type": "Point", "coordinates": [ 60.6307411, 56.8638336 ] } },
{ "type": "Feature", "properties": { "name": "Швейное ателье Лемар в ТЦ Алатырь", "shop": "tailor", "capacity": 300 }, "geometry": { "type": "Point", "coordinates": [ 60.5819537, 56.833203 ] } },
{ "type": "Feature", "properties": { "name": "Швейное ателье Лемар в ТЦ Радуга Парк", "shop": "tailor", "capacity": 300 }, "geometry": { "type": "Point", "coordinates": [ 60.5390224, 56.8170901 ] } },
{ "type": "Feature", "properties": { "name": "Стирка+", "shop": "dry_cleaning", "capacity": 300 }, "geometry": { "type": "Point", "coordinates": [ 60.6884739, 56.834281 ] } },
{ "type": "Feature", "properties": { "name": "Voentorg", "shop": "tailor", "capacity": 300 }, "geometry": { "type": "Point", "coordinates": [ 60.6503944, 56.8460179 ] } },
{ "type": "Feature", "properties": { "name": null, "shop": "laundry", "capacity": 300 }, "geometry": { "type": "Point", "coordinates": [ 60.5807136, 56.8871484 ] } },
{ "type": "Feature", "properties": { "name": "Прачка 96", "shop": "laundry", "capacity": 300 }, "geometry": { "type": "Point", "coordinates": [ 60.7058976, 56.7550436 ] } },
{ "type": "Feature", "properties": { "name": "Prachking", "shop": "laundry", "capacity": 300 }, "geometry": { "type": "Point", "coordinates": [ 60.6140686, 56.9180461 ] } },
{ "type": "Feature", "properties": { "name": "Постирай", "shop": "laundry", "capacity": 300 }, "geometry": { "type": "Point", "coordinates": [ 60.4999387, 56.7924562 ] } },
{ "type": "Feature", "properties": { "name": "Постирай", "shop": "laundry", "capacity": 300 }, "geometry": { "type": "Point", "coordinates": [ 60.6127846, 56.8888363 ] } },
{ "type": "Feature", "properties": { "name": "Свитер", "shop": null, "capacity": 300 }, "geometry": { "type": "Point", "coordinates": [ 60.6421698, 56.8454902 ] } },
{ "type": "Feature", "properties": { "name": null, "shop": "shoe_repair", "capacity": 300 }, "geometry": { "type": "Point", "coordinates": [ 60.6029495, 56.7664383 ] } },
{ "type": "Feature", "properties": { "name": "Iceberg", "shop": "laundry", "capacity": 300 }, "geometry": { "type": "Point", "coordinates": [ 60.5684512, 56.8347855 ] } },
{ "type": "Feature", "properties": { "name": "ПрофЧист", "shop": "dry_cleaning", "capacity": 300 }, "geometry": { "type": "Point", "coordinates": [ 60.6648088, 56.7828567 ] } },
{ "type": "Feature", "properties": { "name": null, "shop": null, "capacity": 300 }, "geometry": { "type": "Point", "coordinates": [ 60.5696661, 56.801683 ] } },
{ "type": "Feature", "properties": { "name": "SneakNFresh", "shop": "dry_cleaning", "capacity": 300 }, "geometry": { "type": "Point", "coordinates": [ 60.5984616, 56.8153329 ] } },
{ "type": "Feature", "properties": { "name": "SneakNFresh", "shop": "dry_cleaning", "capacity": 300 }, "geometry": { "type": "Point", "coordinates": [ 60.619789, 56.859665 ] } },
{ "type": "Feature", "properties": { "name": "SneakNFresh", "shop": "dry_cleaning", "capacity": 300 }, "geometry": { "type": "Point", "coordinates": [ 60.598939, 56.8269142 ] } },
{ "type": "Feature", "properties": { "name": "SneakNFresh", "shop": "dry_cleaning", "capacity": 300 }, "geometry": { "type": "Point", "coordinates": [ 60.6160408, 56.8455968 ] } },
{ "type": "Feature", "properties": { "name": "Clean Peaks", "shop": "dry_cleaning", "capacity": 300 }, "geometry": { "type": "Point", "coordinates": [ 60.6346987, 56.8170366 ] } },
{ "type": "Feature", "properties": { "name": "Bianca", "shop": "dry_cleaning", "capacity": 300 }, "geometry": { "type": "Point", "coordinates": [ 60.5913753, 56.8301751 ] } },
{ "type": "Feature", "properties": { "name": "SneakNFresh", "shop": "dry_cleaning", "capacity": 300 }, "geometry": { "type": "Point", "coordinates": [ 60.5459815, 56.8340168 ] } },
{ "type": "Feature", "properties": { "name": "Ателье от Евгении", "shop": null, "capacity": 300 }, "geometry": { "type": "Point", "coordinates": [ 60.5854688, 56.7561285 ] } },
{ "type": "Feature", "properties": { "name": "Big wash", "shop": "laundry", "capacity": 300 }, "geometry": { "type": "Point", "coordinates": [ 60.7041914, 56.7777453 ] } },
{ "type": "Feature", "properties": { "name": "Big wash", "shop": "laundry", "capacity": 300 }, "geometry": { "type": "Point", "coordinates": [ 60.5607527, 56.7436692 ] } },
{ "type": "Feature", "properties": { "name": "Big wash", "shop": "laundry", "capacity": 300 }, "geometry": { "type": "Point", "coordinates": [ 60.6617294, 56.8371414 ] } },
{ "type": "Feature", "properties": { "name": "Big wash", "shop": "laundry", "capacity": 300 }, "geometry": { "type": "Point", "coordinates": [ 60.5878241, 56.827825 ] } },
{ "type": "Feature", "properties": { "name": "Dp-factory", "shop": "tailor", "capacity": 300 }, "geometry": { "type": "Point", "coordinates": [ 60.6438446, 56.8439759 ] } },
{ "type": "Feature", "properties": { "name": "Александрия", "shop": "laundry", "capacity": 300 }, "geometry": { "type": "Point", "coordinates": [ 60.625713, 56.8998639 ] } },
{ "type": "Feature", "properties": { "name": null, "shop": "shoe_repair", "capacity": 300 }, "geometry": { "type": "Point", "coordinates": [ 60.607328556827554, 56.8130532 ] } }
]
}
