{
"type": "FeatureCollection",
"name": "mortuary",
"crs": { "type": "name", "properties": { "name": "urn:ogc:def:crs:OGC:1.3:CRS84" } },
"features": [
{ "type": "Feature", "properties": { "amenity": "mortuary", "name": null, "capacity": 300 }, "geometry": { "type": "Point", "coordinates": [ 60.5493492, 56.8109965 ] } },
{ "type": "Feature", "properties": { "amenity": "mortuary", "name": null, "capacity": 300 }, "geometry": { "type": "Point", "coordinates": [ 60.7070962, 56.7638265 ] } },
{ "type": "Feature", "properties": { "amenity": "mortuary", "name": "Морг", "capacity": 300 }, "geometry": { "type": "Point", "coordinates": [ 60.5982888, 56.8196372 ] } },
{ "type": "Feature", "properties": { "amenity": "mortuary", "name": "Морг", "capacity": 300 }, "geometry": { "type": "Point", "coordinates": [ 60.57038085, 56.88612795 ] } },
{ "type": "Feature", "properties": { "amenity": "mortuary", "name": "Свердловское областное патологоанатомическое бюро", "capacity": 300 }, "geometry": { "type": "Point", "coordinates": [ 60.55860872122571, 56.80705285 ] } },
{ "type": "Feature", "properties": { "amenity": "mortuary", "name": "Патолого-анатомическое отделение", "capacity": 300 }, "geometry": { "type": "Point", "coordinates": [ 60.642401355301295, 56.867721 ] } }
]
}
