{
"type": "FeatureCollection",
"name": "shop_pets",
"crs": { "type": "name", "properties": { "name": "urn:ogc:def:crs:OGC:1.3:CRS84" } },
"features": [
{ "type": "Feature", "properties": { "name": "Заповедник", "shop": "pet", "capacity": 1000 }, "geometry": { "type": "Point", "coordinates": [ 60.6189076, 56.8180335 ] } },
{ "type": "Feature", "properties": { "name": "Заповедник", "shop": "pet", "capacity": 1000 }, "geometry": { "type": "Point", "coordinates": [ 60.6799936, 56.8396715 ] } },
{ "type": "Feature", "properties": { "name": "Зоомагазин", "shop": "pet", "capacity": 1000 }, "geometry": { "type": "Point", "coordinates": [ 60.6236651, 56.84737 ] } },
{ "type": "Feature", "properties": { "name": "Матроскин", "shop": "pet", "capacity": 1000 }, "geometry": { "type": "Point", "coordinates": [ 60.6134386, 56.8025678 ] } },
{ "type": "Feature", "properties": { "name": "Природа", "shop": "pet", "capacity": 1000 }, "geometry": { "type": "Point", "coordinates": [ 60.6446728, 56.8397516 ] } },
{ "type": "Feature", "properties": { "name": "Матроскин", "shop": "pet", "capacity": 1000 }, "geometry": { "type": "Point", "coordinates": [ 60.5947379, 56.8351698 ] } },
{ "type": "Feature", "properties": { "name": null, "shop": "pet", "capacity": 1000 }, "geometry": { "type": "Point", "coordinates": [ 60.6287685, 56.796615 ] } },
{ "type": "Feature", "properties": { "name": "Зоомагазин", "shop": "pet", "capacity": 1000 }, "geometry": { "type": "Point", "coordinates": [ 60.6293979, 56.7708987 ] } },
{ "type": "Feature", "properties": { "name": "Заповедник", "shop": "pet", "capacity": 1000 }, "geometry": { "type": "Point", "coordinates": [ 60.5993652, 56.8302529 ] } },
{ "type": "Feature", "properties": { "name": "Миска маркет", "shop": "pet", "capacity": 1000 }, "geometry": { "type": "Point", "coordinates": [ 60.6544767, 56.8562255 ] } },
{ "type": "Feature", "properties": { "name": "Зообум", "shop": "pet", "capacity": 1000 }, "geometry": { "type": "Point", "coordinates": [ 60.5030229, 56.8231515 ] } },
{ "type": "Feature", "properties": { "name": "Paradogs", "shop": "pet", "capacity": 1000 }, "geometry": { "type": "Point", "coordinates": [ 60.6550735, 56.8589215 ] } },
{ "type": "Feature", "properties": { "name": "Лиана", "shop": "pet", "capacity": 1000 }, "geometry": { "type": "Point", "coordinates": [ 60.6401274, 56.8953323 ] } },
{ "type": "Feature", "properties": { "name": null, "shop": "pet", "capacity": 1000 }, "geometry": { "type": "Point", "coordinates": [ 60.5987908, 56.9073168 ] } },
{ "type": "Feature", "properties": { "name": "Матроскин", "shop": "pet", "capacity": 1000 }, "geometry": { "type": "Point", "coordinates": [ 60.6224049, 56.8635421 ] } },
{ "type": "Feature", "properties": { "name": "Созвездие псов", "shop": "pet", "capacity": 1000 }, "geometry": { "type": "Point", "coordinates": [ 60.5784237, 56.7952098 ] } },
{ "type": "Feature", "properties": { "name": "М-Зоо", "shop": "pet", "capacity": 1000 }, "geometry": { "type": "Point", "coordinates": [ 60.5181724, 56.7892615 ] } },
{ "type": "Feature", "properties": { "name": "Анстер", "shop": "pet", "capacity": 1000 }, "geometry": { "type": "Point", "coordinates": [ 60.5213059, 56.7916785 ] } },
{ "type": "Feature", "properties": { "name": "В мире животных", "shop": "pet", "capacity": 1000 }, "geometry": { "type": "Point", "coordinates": [ 60.568661, 56.7944676 ] } },
{ "type": "Feature", "properties": { "name": "PetShop", "shop": "pet", "capacity": 1000 }, "geometry": { "type": "Point", "coordinates": [ 60.6177219, 56.8460218 ] } },
{ "type": "Feature", "properties": { "name": "Любимчик", "shop": "pet", "capacity": 1000 }, "geometry": { "type": "Point", "coordinates": [ 60.5960278, 56.8496655 ] } },
{ "type": "Feature", "properties": { "name": "Заповедник", "shop": "pet", "capacity": 1000 }, "geometry": { "type": "Point", "coordinates": [ 60.6175352, 56.7927012 ] } },
{ "type": "Feature", "properties": { "name": "Керри", "shop": "pet", "capacity": 1000 }, "geometry": { "type": "Point", "coordinates": [ 60.5636316, 56.8302372 ] } },
{ "type": "Feature", "properties": { "name": "Лапка", "shop": "pet", "capacity": 1000 }, "geometry": { "type": "Point", "coordinates": [ 60.5418318, 56.7838134 ] } },
{ "type": "Feature", "properties": { "name": "Заповедник", "shop": "pet", "capacity": 1000 }, "geometry": { "type": "Point", "coordinates": [ 60.606856, 56.8076719 ] } },
{ "type": "Feature", "properties": { "name": "Анстер", "shop": "pet", "capacity": 1000 }, "geometry": { "type": "Point", "coordinates": [ 60.6220314, 56.8101235 ] } },
{ "type": "Feature", "properties": { "name": null, "shop": "pet", "capacity": 1000 }, "geometry": { "type": "Point", "coordinates": [ 60.5154245, 56.8725379 ] } },
{ "type": "Feature", "properties": { "name": "Лёва", "shop": "pet", "capacity": 1000 }, "geometry": { "type": "Point", "coordinates": [ 60.6231332, 56.9022034 ] } },
{ "type": "Feature", "properties": { "name": null, "shop": "pet", "capacity": 1000 }, "geometry": { "type": "Point", "coordinates": [ 60.6220185, 56.9040499 ] } },
{ "type": "Feature", "properties": { "name": "Царапка", "shop": "pet", "capacity": 1000 }, "geometry": { "type": "Point", "coordinates": [ 60.662106, 56.8325383 ] } },
{ "type": "Feature", "properties": { "name": "Созвездие псов", "shop": "pet", "capacity": 1000 }, "geometry": { "type": "Point", "coordinates": [ 60.5080461, 56.7936829 ] } },
{ "type": "Feature", "properties": { "name": "Заповедник", "shop": "pet", "capacity": 1000 }, "geometry": { "type": "Point", "coordinates": [ 60.6518468, 56.8638566 ] } },
{ "type": "Feature", "properties": { "name": "Анстер", "shop": "pet", "capacity": 1000 }, "geometry": { "type": "Point", "coordinates": [ 60.647073, 56.8614151 ] } },
{ "type": "Feature", "properties": { "name": "Дог сити", "shop": "pet", "capacity": 1000 }, "geometry": { "type": "Point", "coordinates": [ 60.5625263, 56.8332496 ] } },
{ "type": "Feature", "properties": { "name": "Рин Тин Тин", "shop": "pet", "capacity": 1000 }, "geometry": { "type": "Point", "coordinates": [ 60.5651659, 56.830026 ] } },
{ "type": "Feature", "properties": { "name": "Какаду", "shop": "pet", "capacity": 1000 }, "geometry": { "type": "Point", "coordinates": [ 60.679358, 56.8368417 ] } },
{ "type": "Feature", "properties": { "name": "Paradogs", "shop": "pet", "capacity": 1000 }, "geometry": { "type": "Point", "coordinates": [ 60.5136485, 56.7905638 ] } },
{ "type": "Feature", "properties": { "name": null, "shop": "pet", "capacity": 1000 }, "geometry": { "type": "Point", "coordinates": [ 60.6329975, 56.8368039 ] } },
{ "type": "Feature", "properties": { "name": "Заповедник", "shop": "pet", "capacity": 1000 }, "geometry": { "type": "Point", "coordinates": [ 60.5195664, 56.7929844 ] } },
{ "type": "Feature", "properties": { "name": "Мир природы", "shop": "pet", "capacity": 1000 }, "geometry": { "type": "Point", "coordinates": [ 60.5455172, 56.8315824 ] } },
{ "type": "Feature", "properties": { "name": "petshop.ru", "shop": "pet", "capacity": 1000 }, "geometry": { "type": "Point", "coordinates": [ 60.5457437, 56.8328521 ] } },
{ "type": "Feature", "properties": { "name": "Живой Мир", "shop": "pet", "capacity": 1000 }, "geometry": { "type": "Point", "coordinates": [ 60.6097712, 56.8999965 ] } },
{ "type": "Feature", "properties": { "name": "Хатико", "shop": "pet", "capacity": 1000 }, "geometry": { "type": "Point", "coordinates": [ 60.5689757, 56.824251 ] } },
{ "type": "Feature", "properties": { "name": "Натуралист", "shop": "pet", "capacity": 1000 }, "geometry": { "type": "Point", "coordinates": [ 60.5751005, 56.8847672 ] } },
{ "type": "Feature", "properties": { "name": "Корм Зоо", "shop": "pet", "capacity": 1000 }, "geometry": { "type": "Point", "coordinates": [ 60.6018215, 56.8919629 ] } },
{ "type": "Feature", "properties": { "name": "Заповедник", "shop": "pet", "capacity": 1000 }, "geometry": { "type": "Point", "coordinates": [ 60.549663, 56.8310718 ] } },
{ "type": "Feature", "properties": { "name": "Рин-тин-тин", "shop": "pet", "capacity": 1000 }, "geometry": { "type": "Point", "coordinates": [ 60.6145643, 56.8916872 ] } },
{ "type": "Feature", "properties": { "name": "Контактный зоопарк Простоквашино", "shop": "pet", "capacity": 1000 }, "geometry": { "type": "Point", "coordinates": [ 60.5975374, 56.8569069 ] } },
{ "type": "Feature", "properties": { "name": "Анстер", "shop": "pet", "capacity": 1000 }, "geometry": { "type": "Point", "coordinates": [ 60.5155134, 56.8118988 ] } },
{ "type": "Feature", "properties": { "name": "PetShop", "shop": "pet", "capacity": 1000 }, "geometry": { "type": "Point", "coordinates": [ 60.605426, 56.8225195 ] } },
{ "type": "Feature", "properties": { "name": null, "shop": "pet", "capacity": 1000 }, "geometry": { "type": "Point", "coordinates": [ 60.5093028, 56.8854637 ] } },
{ "type": "Feature", "properties": { "name": "кормушка для птиц", "shop": "pet", "capacity": 1000 }, "geometry": { "type": "Point", "coordinates": [ 60.4065875, 56.8276227 ] } },
{ "type": "Feature", "properties": { "name": "Мир хвостатых", "shop": "pet", "capacity": 1000 }, "geometry": { "type": "Point", "coordinates": [ 60.6166332, 56.8492093 ] } },
{ "type": "Feature", "properties": { "name": "Запведник", "shop": "pet", "capacity": 1000 }, "geometry": { "type": "Point", "coordinates": [ 60.6200829, 56.8396334 ] } },
{ "type": "Feature", "properties": { "name": null, "shop": "pet", "capacity": 1000 }, "geometry": { "type": "Point", "coordinates": [ 60.5832615, 56.8410389 ] } },
{ "type": "Feature", "properties": { "name": "Заповедник", "shop": "pet", "capacity": 1000 }, "geometry": { "type": "Point", "coordinates": [ 60.5526594, 56.8692386 ] } },
{ "type": "Feature", "properties": { "name": null, "shop": "pet", "capacity": 1000 }, "geometry": { "type": "Point", "coordinates": [ 60.4949418, 56.8011794 ] } },
{ "type": "Feature", "properties": { "name": null, "shop": "pet", "capacity": 1000 }, "geometry": { "type": "Point", "coordinates": [ 60.5864963, 56.8271094 ] } },
{ "type": "Feature", "properties": { "name": "Petshop.ru", "shop": "pet", "capacity": 1000 }, "geometry": { "type": "Point", "coordinates": [ 60.514629, 56.7900287 ] } },
{ "type": "Feature", "properties": { "name": "Умка", "shop": "pet", "capacity": 1000 }, "geometry": { "type": "Point", "coordinates": [ 60.6059879, 56.7468374 ] } },
{ "type": "Feature", "properties": { "name": "Petto", "shop": "pet", "capacity": 1000 }, "geometry": { "type": "Point", "coordinates": [ 60.520384, 56.7822931 ] } },
{ "type": "Feature", "properties": { "name": "СВ Маркет", "shop": "pet", "capacity": 1000 }, "geometry": { "type": "Point", "coordinates": [ 60.5139138, 56.7858609 ] } },
{ "type": "Feature", "properties": { "name": "Дружок", "shop": "pet", "capacity": 1000 }, "geometry": { "type": "Point", "coordinates": [ 60.6311899, 56.7921712 ] } },
{ "type": "Feature", "properties": { "name": "Заповедник", "shop": "pet", "capacity": 1000 }, "geometry": { "type": "Point", "coordinates": [ 60.629168, 56.83695 ] } },
{ "type": "Feature", "properties": { "name": "Четыре лапы", "shop": "pet", "capacity": 1000 }, "geometry": { "type": "Point", "coordinates": [ 60.5185105, 56.7909046 ] } },
{ "type": "Feature", "properties": { "name": null, "shop": "pet", "capacity": 1000 }, "geometry": { "type": "Point", "coordinates": [ 60.6339607, 56.8641099 ] } },
{ "type": "Feature", "properties": { "name": "Заповедник", "shop": "pet", "capacity": 1000 }, "geometry": { "type": "Point", "coordinates": [ 60.5992125, 56.848364 ] } },
{ "type": "Feature", "properties": { "name": "Мир хвостатых", "shop": "pet", "capacity": 1000 }, "geometry": { "type": "Point", "coordinates": [ 60.6126493, 56.9029441 ] } },
{ "type": "Feature", "properties": { "name": null, "shop": "pet", "capacity": 1000 }, "geometry": { "type": "Point", "coordinates": [ 60.613451, 56.9011555 ] } },
{ "type": "Feature", "properties": { "name": "Мокрый нос", "shop": "pet", "capacity": 1000 }, "geometry": { "type": "Point", "coordinates": [ 60.6180153, 56.8486557 ] } },
{ "type": "Feature", "properties": { "name": "Мир хвостатых", "shop": "pet", "capacity": 1000 }, "geometry": { "type": "Point", "coordinates": [ 60.6083242, 56.8123756 ] } },
{ "type": "Feature", "properties": { "name": "Жужа", "shop": "pet", "capacity": 1000 }, "geometry": { "type": "Point", "coordinates": [ 60.587753, 56.827967 ] } },
{ "type": "Feature", "properties": { "name": "Жужа", "shop": "pet", "capacity": 1000 }, "geometry": { "type": "Point", "coordinates": [ 60.6270539, 56.8032016 ] } },
{ "type": "Feature", "properties": { "name": "Жужа", "shop": "pet", "capacity": 1000 }, "geometry": { "type": "Point", "coordinates": [ 60.6321837, 56.7820397 ] } },
{ "type": "Feature", "properties": { "name": "Гелон", "shop": "pet", "capacity": 1000 }, "geometry": { "type": "Point", "coordinates": [ 60.5897873, 56.9028029 ] } },
{ "type": "Feature", "properties": { "name": "Ле'Муррр", "shop": "pet", "capacity": 1000 }, "geometry": { "type": "Point", "coordinates": [ 60.6225425, 56.7966714 ] } },
{ "type": "Feature", "properties": { "name": "Ле'Муррр", "shop": "pet", "capacity": 1000 }, "geometry": { "type": "Point", "coordinates": [ 60.6316998, 56.8819414 ] } },
{ "type": "Feature", "properties": { "name": "Заповедник", "shop": "pet", "capacity": 1000 }, "geometry": { "type": "Point", "coordinates": [ 60.6323008, 56.8172793 ] } },
{ "type": "Feature", "properties": { "name": "ParaDogs", "shop": "pet", "capacity": 1000 }, "geometry": { "type": "Point", "coordinates": [ 60.6561526, 56.8624915 ] } },
{ "type": "Feature", "properties": { "name": "Анстер", "shop": "pet", "capacity": 1000 }, "geometry": { "type": "Point", "coordinates": [ 60.6814544, 56.8344481 ] } },
{ "type": "Feature", "properties": { "name": "Заповедник", "shop": "pet", "capacity": 1000 }, "geometry": { "type": "Point", "coordinates": [ 60.7007242, 56.7802222 ] } },
{ "type": "Feature", "properties": { "name": "Зоотрейд", "shop": "pet", "capacity": 1000 }, "geometry": { "type": "Point", "coordinates": [ 60.5153829, 56.8725807 ] } },
{ "type": "Feature", "properties": { "name": "Мой друг", "shop": "pet", "capacity": 1000 }, "geometry": { "type": "Point", "coordinates": [ 60.6265666, 56.8607849 ] } },
{ "type": "Feature", "properties": { "name": "Зоотрейд", "shop": "pet", "capacity": 1000 }, "geometry": { "type": "Point", "coordinates": [ 60.5508997, 56.8533473 ] } },
{ "type": "Feature", "properties": { "name": "Четыре лапы", "shop": "pet", "capacity": 1000 }, "geometry": { "type": "Point", "coordinates": [ 60.6107447, 56.8050538 ] } },
{ "type": "Feature", "properties": { "name": "Заповедник", "shop": "pet", "capacity": 1000 }, "geometry": { "type": "Point", "coordinates": [ 60.628910724564264, 56.855832 ] } }
]
}
