{
"type": "FeatureCollection",
"name": "shop_sport",
"crs": { "type": "name", "properties": { "name": "urn:ogc:def:crs:OGC:1.3:CRS84" } },
"features": [
{ "type": "Feature", "properties": { "name": "Спортмастер", "shop": "sports", "capacity": 3000 }, "geometry": { "type": "Point", "coordinates": [ 60.5821636, 56.8328311 ] } },
{ "type": "Feature", "properties": { "name": "Спорттовары", "shop": "sports", "capacity": 3000 }, "geometry": { "type": "Point", "coordinates": [ 60.599443, 56.83386 ] } },
{ "type": "Feature", "properties": { "name": "Спортмастер", "shop": "sports", "capacity": 3000 }, "geometry": { "type": "Point", "coordinates": [ 60.6485104, 56.7882557 ] } },
{ "type": "Feature", "properties": { "name": "Планета спорта", "shop": "sports", "capacity": 3000 }, "geometry": { "type": "Point", "coordinates": [ 60.616838, 56.848481 ] } },
{ "type": "Feature", "properties": { "name": "Fizkultura", "shop": "sports", "capacity": 3000 }, "geometry": { "type": "Point", "coordinates": [ 60.6350114, 56.8618322 ] } },
{ "type": "Feature", "properties": { "name": "Спортмастер", "shop": "sports", "capacity": 3000 }, "geometry": { "type": "Point", "coordinates": [ 60.5510599, 56.8529722 ] } },
{ "type": "Feature", "properties": { "name": "Спортмастер", "shop": "sports", "capacity": 3000 }, "geometry": { "type": "Point", "coordinates": [ 60.5079864, 56.8230994 ] } },
{ "type": "Feature", "properties": { "name": "ProfMax", "shop": "sports", "capacity": 3000 }, "geometry": { "type": "Point", "coordinates": [ 60.6046604, 56.8556424 ] } },
{ "type": "Feature", "properties": { "name": "Морской стиль", "shop": "sports", "capacity": 3000 }, "geometry": { "type": "Point", "coordinates": [ 60.5663486, 56.8358243 ] } },
{ "type": "Feature", "properties": { "name": "Динамо", "shop": "sports", "capacity": 3000 }, "geometry": { "type": "Point", "coordinates": [ 60.6320545, 56.8967188 ] } },
{ "type": "Feature", "properties": { "name": "Триал-спорт", "shop": "sports", "capacity": 3000 }, "geometry": { "type": "Point", "coordinates": [ 60.6157148, 56.8364422 ] } },
{ "type": "Feature", "properties": { "name": "Adidas", "shop": "sports", "capacity": 3000 }, "geometry": { "type": "Point", "coordinates": [ 60.6132238, 56.9001225 ] } },
{ "type": "Feature", "properties": { "name": "Пумори-Спорт", "shop": "sports", "capacity": 3000 }, "geometry": { "type": "Point", "coordinates": [ 60.6178491, 56.8139843 ] } },
{ "type": "Feature", "properties": { "name": "Новое-Решение.РФ", "shop": "sports", "capacity": 3000 }, "geometry": { "type": "Point", "coordinates": [ 60.5577135, 56.8227673 ] } },
{ "type": "Feature", "properties": { "name": "Спортивное питание", "shop": "sports", "capacity": 3000 }, "geometry": { "type": "Point", "coordinates": [ 60.5271285, 56.7896972 ] } },
{ "type": "Feature", "properties": { "name": "Мальвина", "shop": "sports", "capacity": 3000 }, "geometry": { "type": "Point", "coordinates": [ 60.5193962, 56.7913849 ] } },
{ "type": "Feature", "properties": { "name": "СпортДепо", "shop": "sports", "capacity": 3000 }, "geometry": { "type": "Point", "coordinates": [ 60.5950716, 56.8170715 ] } },
{ "type": "Feature", "properties": { "name": "Динамо", "shop": "sports", "capacity": 3000 }, "geometry": { "type": "Point", "coordinates": [ 60.5674063, 56.8882274 ] } },
{ "type": "Feature", "properties": { "name": "Adidas", "shop": "sports", "capacity": 3000 }, "geometry": { "type": "Point", "coordinates": [ 60.5377759, 56.816328 ] } },
{ "type": "Feature", "properties": { "name": "Спортмастер Дисконт", "shop": "sports", "capacity": 3000 }, "geometry": { "type": "Point", "coordinates": [ 60.6010792, 56.9041963 ] } },
{ "type": "Feature", "properties": { "name": "Спортмастер", "shop": "sports", "capacity": 3000 }, "geometry": { "type": "Point", "coordinates": [ 60.630264, 56.8635681 ] } },
{ "type": "Feature", "properties": { "name": "Триал-Спорт", "shop": "sports", "capacity": 3000 }, "geometry": { "type": "Point", "coordinates": [ 60.547909, 56.8304424 ] } },
{ "type": "Feature", "properties": { "name": "Nordy", "shop": "sports", "capacity": 3000 }, "geometry": { "type": "Point", "coordinates": [ 60.5713577, 56.8358777 ] } },
{ "type": "Feature", "properties": { "name": "Товары для художественной гимнастики", "shop": "sports", "capacity": 3000 }, "geometry": { "type": "Point", "coordinates": [ 60.6131503, 56.8424913 ] } },
{ "type": "Feature", "properties": { "name": "Морской стиль", "shop": "sports", "capacity": 3000 }, "geometry": { "type": "Point", "coordinates": [ 60.5684784, 56.8298746 ] } },
{ "type": "Feature", "properties": { "name": "Спортивное питание", "shop": "sports", "capacity": 3000 }, "geometry": { "type": "Point", "coordinates": [ 60.5637166, 56.830231 ] } },
{ "type": "Feature", "properties": { "name": "СпортПрокат", "shop": "sports", "capacity": 3000 }, "geometry": { "type": "Point", "coordinates": [ 60.5948545, 56.8876197 ] } },
{ "type": "Feature", "properties": { "name": "Gym Hall", "shop": "sports", "capacity": 3000 }, "geometry": { "type": "Point", "coordinates": [ 60.5766024, 56.7907661 ] } },
{ "type": "Feature", "properties": { "name": "Спортивное питание", "shop": "sports", "capacity": 3000 }, "geometry": { "type": "Point", "coordinates": [ 60.6108863, 56.9134595 ] } },
{ "type": "Feature", "properties": { "name": "SportLife", "shop": "sports", "capacity": 3000 }, "geometry": { "type": "Point", "coordinates": [ 60.5494835, 56.8310843 ] } },
{ "type": "Feature", "properties": { "name": "FlexMass", "shop": "sports", "capacity": 3000 }, "geometry": { "type": "Point", "coordinates": [ 60.5638033, 56.831083 ] } },
{ "type": "Feature", "properties": { "name": "Силур-спорт", "shop": "sports", "capacity": 3000 }, "geometry": { "type": "Point", "coordinates": [ 60.6510588, 56.8394345 ] } },
{ "type": "Feature", "properties": { "name": "Траектория", "shop": "sports", "capacity": 3000 }, "geometry": { "type": "Point", "coordinates": [ 60.5998939, 56.826979 ] } },
{ "type": "Feature", "properties": { "name": "Экоспорт", "shop": "sports", "capacity": 3000 }, "geometry": { "type": "Point", "coordinates": [ 60.5894748, 56.8152486 ] } },
{ "type": "Feature", "properties": { "name": "Т-Спорт", "shop": "sports", "capacity": 3000 }, "geometry": { "type": "Point", "coordinates": [ 60.6051298, 56.8699834 ] } },
{ "type": "Feature", "properties": { "name": "MassMarket", "shop": "sports", "capacity": 3000 }, "geometry": { "type": "Point", "coordinates": [ 60.5794131, 56.8321785 ] } },
{ "type": "Feature", "properties": { "name": "Овелон - спорттовары", "shop": "sports", "capacity": 3000 }, "geometry": { "type": "Point", "coordinates": [ 60.6078151, 56.7881031 ] } },
{ "type": "Feature", "properties": { "name": "Bogner", "shop": "sports", "capacity": 3000 }, "geometry": { "type": "Point", "coordinates": [ 60.5907387, 56.8305019 ] } },
{ "type": "Feature", "properties": { "name": "Спортмастер", "shop": "sports", "capacity": 3000 }, "geometry": { "type": "Point", "coordinates": [ 60.5983839, 56.8297985 ] } },
{ "type": "Feature", "properties": { "name": "Саломон", "shop": "sports", "capacity": 3000 }, "geometry": { "type": "Point", "coordinates": [ 60.5990013, 56.8297032 ] } },
{ "type": "Feature", "properties": { "name": "R5", "shop": "sports", "capacity": 3000 }, "geometry": { "type": "Point", "coordinates": [ 60.5978434, 56.8267579 ] } },
{ "type": "Feature", "properties": { "name": "ММК", "shop": "sports", "capacity": 3000 }, "geometry": { "type": "Point", "coordinates": [ 60.6634021, 56.8419778 ] } },
{ "type": "Feature", "properties": { "name": "to Sport", "shop": "sports", "capacity": 3000 }, "geometry": { "type": "Point", "coordinates": [ 60.5914262, 56.8265517 ] } },
{ "type": "Feature", "properties": { "name": "Спорт-Профф", "shop": "sports", "capacity": 3000 }, "geometry": { "type": "Point", "coordinates": [ 60.5808717, 56.8405196 ] } },
{ "type": "Feature", "properties": { "name": "Кант", "shop": "sports", "capacity": 3000 }, "geometry": { "type": "Point", "coordinates": [ 60.5961549, 56.8301487 ] } },
{ "type": "Feature", "properties": { "name": "flex Sport", "shop": "sports", "capacity": 3000 }, "geometry": { "type": "Point", "coordinates": [ 60.6266932, 56.8403389 ] } },
{ "type": "Feature", "properties": { "name": "Кросспарк", "shop": "sports", "capacity": 3000 }, "geometry": { "type": "Point", "coordinates": [ 60.5995131, 56.8309529 ] } },
{ "type": "Feature", "properties": { "name": "Sporterius", "shop": "sports", "capacity": 3000 }, "geometry": { "type": "Point", "coordinates": [ 60.6158585, 56.8365406 ] } },
{ "type": "Feature", "properties": { "name": "Desport", "shop": "sports", "capacity": 3000 }, "geometry": { "type": "Point", "coordinates": [ 60.5962121, 56.8299332 ] } },
{ "type": "Feature", "properties": { "name": "Topwens", "shop": "sports", "capacity": 3000 }, "geometry": { "type": "Point", "coordinates": [ 60.5986995, 56.8307681 ] } },
{ "type": "Feature", "properties": { "name": "Shvetsov.Store", "shop": "sports", "capacity": 3000 }, "geometry": { "type": "Point", "coordinates": [ 60.5873412, 56.8271872 ] } },
{ "type": "Feature", "properties": { "name": "Airsoft66", "shop": "sports", "capacity": 3000 }, "geometry": { "type": "Point", "coordinates": [ 60.6558184, 56.8556564 ] } },
{ "type": "Feature", "properties": { "name": null, "shop": "sports", "capacity": 3000 }, "geometry": { "type": "Point", "coordinates": [ 60.599351640990605, 56.9078616 ] } }
]
}
