{
"type": "FeatureCollection",
"name": "sports_centre",
"crs": { "type": "name", "properties": { "name": "urn:ogc:def:crs:OGC:1.3:CRS84" } },
"features": [
{ "type": "Feature", "properties": { "leisure": "sports_centre", "name": null, "sport": null, "capacity": 1000 }, "geometry": { "type": "Point", "coordinates": [ 60.6611845, 56.7758431 ] } },
{ "type": "Feature", "properties": { "leisure": "sports_centre", "name": null, "sport": null, "capacity": 1000 }, "geometry": { "type": "Point", "coordinates": [ 60.6604269, 56.763479 ] } },
{ "type": "Feature", "properties": { "leisure": "sports_centre", "name": "Школа виндсёрфинга и кайтинга", "sport": null, "capacity": 1000 }, "geometry": { "type": "Point", "coordinates": [ 60.7153169, 56.8498692 ] } },
{ "type": "Feature", "properties": { "leisure": "sports_centre", "name": "СЦ Верх-Исетский", "sport": null, "capacity": 1000 }, "geometry": { "type": "Point", "coordinates": [ 60.5508413, 56.8396308 ] } },
{ "type": "Feature", "properties": { "leisure": "sports_centre", "name": "Школа олимпийского резерва", "sport": null, "capacity": 1000 }, "geometry": { "type": "Point", "coordinates": [ 60.6277445, 56.8352132 ] } },
{ "type": "Feature", "properties": { "leisure": "sports_centre", "name": "Лыжная база Локомотив", "sport": null, "capacity": 1000 }, "geometry": { "type": "Point", "coordinates": [ 60.4957586, 56.8930474 ] } },
{ "type": "Feature", "properties": { "leisure": "sports_centre", "name": "Луна", "sport": "10pin", "capacity": 1000 }, "geometry": { "type": "Point", "coordinates": [ 60.6639034, 56.8171983 ] } },
{ "type": "Feature", "properties": { "leisure": "sports_centre", "name": "XXX", "sport": null, "capacity": 1000 }, "geometry": { "type": "Point", "coordinates": [ 60.6453948, 56.8604899 ] } },
{ "type": "Feature", "properties": { "leisure": "sports_centre", "name": "ФОК «Октябрьский»", "sport": null, "capacity": 1000 }, "geometry": { "type": "Point", "coordinates": [ 60.6348782, 56.8203171 ] } },
{ "type": "Feature", "properties": { "leisure": "sports_centre", "name": "Центр спорта и культуры «Изумруд»", "sport": null, "capacity": 1000 }, "geometry": { "type": "Point", "coordinates": [ 60.5872003, 56.8375577 ] } },
{ "type": "Feature", "properties": { "leisure": "sports_centre", "name": "Луч", "sport": "multi", "capacity": 1000 }, "geometry": { "type": "Point", "coordinates": [ 60.6354868, 56.8171376 ] } },
{ "type": "Feature", "properties": { "leisure": "sports_centre", "name": "Картинг-центр «Аркада»", "sport": "karting", "capacity": 1000 }, "geometry": { "type": "Point", "coordinates": [ 60.5924973, 56.8360009 ] } },
{ "type": "Feature", "properties": { "leisure": "sports_centre", "name": "Маршал", "sport": null, "capacity": 1000 }, "geometry": { "type": "Point", "coordinates": [ 60.6454015, 56.8519758 ] } },
{ "type": "Feature", "properties": { "leisure": "sports_centre", "name": "Школа фигурного катания «Локомотив»", "sport": "ice_skating", "capacity": 1000 }, "geometry": { "type": "Point", "coordinates": [ 60.6018667, 56.848467 ] } },
{ "type": "Feature", "properties": { "leisure": "sports_centre", "name": null, "sport": null, "capacity": 1000 }, "geometry": { "type": "Point", "coordinates": [ 60.642958, 56.8928994 ] } },
{ "type": "Feature", "properties": { "leisure": "sports_centre", "name": "Powerhouse Gym", "sport": null, "capacity": 1000 }, "geometry": { "type": "Point", "coordinates": [ 60.6275687, 56.792796 ] } },
{ "type": "Feature", "properties": { "leisure": "sports_centre", "name": "Эдем", "sport": "fitness", "capacity": 1000 }, "geometry": { "type": "Point", "coordinates": [ 60.6248211, 56.8364039 ] } },
{ "type": "Feature", "properties": { "leisure": "sports_centre", "name": "Спортивный ангар СУНЦ УрФУ", "sport": null, "capacity": 1000 }, "geometry": { "type": "Point", "coordinates": [ 60.6551688, 56.867785 ] } },
{ "type": "Feature", "properties": { "leisure": "sports_centre", "name": "Дозор - спортивный клуб (Спортзальчик)", "sport": "gymnastics", "capacity": 1000 }, "geometry": { "type": "Point", "coordinates": [ 60.6459713, 56.8526588 ] } },
{ "type": "Feature", "properties": { "leisure": "sports_centre", "name": "Active Park", "sport": null, "capacity": 1000 }, "geometry": { "type": "Point", "coordinates": [ 60.6340866, 56.8626197 ] } },
{ "type": "Feature", "properties": { "leisure": "sports_centre", "name": "Теннисные корты", "sport": "tennis", "capacity": 1000 }, "geometry": { "type": "Point", "coordinates": [ 60.6656889, 56.8171895 ] } },
{ "type": "Feature", "properties": { "leisure": "sports_centre", "name": "Уральский центр кинезиотерапии", "sport": "fitness", "capacity": 1000 }, "geometry": { "type": "Point", "coordinates": [ 60.6519415, 56.8504586 ] } },
{ "type": "Feature", "properties": { "leisure": "sports_centre", "name": "Уральский центр кинезиотерапии", "sport": "fitness", "capacity": 1000 }, "geometry": { "type": "Point", "coordinates": [ 60.5710798, 56.8314206 ] } },
{ "type": "Feature", "properties": { "leisure": "sports_centre", "name": "Fresh fitness", "sport": "fitness", "capacity": 1000 }, "geometry": { "type": "Point", "coordinates": [ 60.6229972, 56.8470207 ] } },
{ "type": "Feature", "properties": { "leisure": "sports_centre", "name": "Darkfit", "sport": "fitness", "capacity": 1000 }, "geometry": { "type": "Point", "coordinates": [ 60.5763439, 56.7909026 ] } },
{ "type": "Feature", "properties": { "leisure": "sports_centre", "name": "Уральский центр кинезиотерапии", "sport": "fitness", "capacity": 1000 }, "geometry": { "type": "Point", "coordinates": [ 60.5979786, 56.808151 ] } },
{ "type": "Feature", "properties": { "leisure": "sports_centre", "name": "Русский фитнес", "sport": "athletics", "capacity": 1000 }, "geometry": { "type": "Point", "coordinates": [ 60.56262, 56.8155752 ] } },
{ "type": "Feature", "properties": { "leisure": "sports_centre", "name": "ФОК «Лидер»", "sport": null, "capacity": 1000 }, "geometry": { "type": "Point", "coordinates": [ 60.6136466, 56.7395774 ] } },
{ "type": "Feature", "properties": { "leisure": "sports_centre", "name": "Империя фитнеса", "sport": "fitness", "capacity": 1000 }, "geometry": { "type": "Point", "coordinates": [ 60.581316, 56.7963339 ] } },
{ "type": "Feature", "properties": { "leisure": "sports_centre", "name": null, "sport": null, "capacity": 1000 }, "geometry": { "type": "Point", "coordinates": [ 60.5766845, 56.8501779 ] } },
{ "type": "Feature", "properties": { "leisure": "sports_centre", "name": "Бенефит", "sport": "fitness", "capacity": 1000 }, "geometry": { "type": "Point", "coordinates": [ 60.6048538, 56.8237131 ] } },
{ "type": "Feature", "properties": { "leisure": "sports_centre", "name": "Спортклуб УрГЭУ", "sport": null, "capacity": 1000 }, "geometry": { "type": "Point", "coordinates": [ 60.6021813, 56.8254459 ] } },
{ "type": "Feature", "properties": { "leisure": "sports_centre", "name": "Загрузка", "sport": "fitness", "capacity": 1000 }, "geometry": { "type": "Point", "coordinates": [ 60.520016, 56.7900177 ] } },
{ "type": "Feature", "properties": { "leisure": "sports_centre", "name": "Марс", "sport": "fitness", "capacity": 1000 }, "geometry": { "type": "Point", "coordinates": [ 60.517808, 56.7900161 ] } },
{ "type": "Feature", "properties": { "leisure": "sports_centre", "name": "Gantelя", "sport": "multi", "capacity": 1000 }, "geometry": { "type": "Point", "coordinates": [ 60.5909011, 56.9084597 ] } },
{ "type": "Feature", "properties": { "leisure": "sports_centre", "name": "Конфедерация", "sport": "shooting", "capacity": 1000 }, "geometry": { "type": "Point", "coordinates": [ 60.5425026, 56.7884646 ] } },
{ "type": "Feature", "properties": { "leisure": "sports_centre", "name": null, "sport": null, "capacity": 1000 }, "geometry": { "type": "Point", "coordinates": [ 60.6130985, 56.8031687 ] } },
{ "type": "Feature", "properties": { "leisure": "sports_centre", "name": "Клуб «Уралец»", "sport": null, "capacity": 1000 }, "geometry": { "type": "Point", "coordinates": [ 60.6873772, 56.8416706 ] } },
{ "type": "Feature", "properties": { "leisure": "sports_centre", "name": "Учебно-спортивный комплекс УралГАХА", "sport": null, "capacity": 1000 }, "geometry": { "type": "Point", "coordinates": [ 60.6094204, 56.8409433 ] } },
{ "type": "Feature", "properties": { "leisure": "sports_centre", "name": "Учебно-спортивная база «Юность России»", "sport": null, "capacity": 1000 }, "geometry": { "type": "Point", "coordinates": [ 60.6588817, 56.7445473 ] } },
{ "type": "Feature", "properties": { "leisure": "sports_centre", "name": "Снежинка", "sport": "soccer", "capacity": 1000 }, "geometry": { "type": "Point", "coordinates": [ 60.5579841, 56.8225487 ] } },
{ "type": "Feature", "properties": { "leisure": "sports_centre", "name": "Культурно-оздоровительный центр \"Орджоникидзевский\"", "sport": null, "capacity": 1000 }, "geometry": { "type": "Point", "coordinates": [ 60.6291343, 56.902532 ] } },
{ "type": "Feature", "properties": { "leisure": "sports_centre", "name": "Русь", "sport": "boxing", "capacity": 1000 }, "geometry": { "type": "Point", "coordinates": [ 60.5106586, 56.7962086 ] } },
{ "type": "Feature", "properties": { "leisure": "sports_centre", "name": "Уральский центр кинезиотерапии", "sport": "fitness", "capacity": 1000 }, "geometry": { "type": "Point", "coordinates": [ 60.5305108, 56.7834873 ] } },
{ "type": "Feature", "properties": { "leisure": "sports_centre", "name": "Ситифитнесс", "sport": null, "capacity": 1000 }, "geometry": { "type": "Point", "coordinates": [ 60.6423776, 56.8455211 ] } },
{ "type": "Feature", "properties": { "leisure": "sports_centre", "name": "Фитнес центр", "sport": "fitness", "capacity": 1000 }, "geometry": { "type": "Point", "coordinates": [ 60.571422, 56.8442518 ] } },
{ "type": "Feature", "properties": { "leisure": "sports_centre", "name": null, "sport": "fitness", "capacity": 1000 }, "geometry": { "type": "Point", "coordinates": [ 60.5710624, 56.843714 ] } },
{ "type": "Feature", "properties": { "leisure": "sports_centre", "name": "Боец", "sport": null, "capacity": 1000 }, "geometry": { "type": "Point", "coordinates": [ 60.5563235, 56.8385312 ] } },
{ "type": "Feature", "properties": { "leisure": "sports_centre", "name": "Отряд \"Каравелла\"", "sport": null, "capacity": 1000 }, "geometry": { "type": "Point", "coordinates": [ 60.5923551, 56.8412263 ] } },
{ "type": "Feature", "properties": { "leisure": "sports_centre", "name": "ProFit", "sport": "fitness", "capacity": 1000 }, "geometry": { "type": "Point", "coordinates": [ 60.5563336, 56.8335227 ] } },
{ "type": "Feature", "properties": { "leisure": "sports_centre", "name": "Ледовый дворец им. Сивкова", "sport": "ice_skating", "capacity": 1000 }, "geometry": { "type": "Point", "coordinates": [ 60.4872175, 56.8054799 ] } },
{ "type": "Feature", "properties": { "leisure": "sports_centre", "name": "МетроFitness", "sport": "fitness", "capacity": 1000 }, "geometry": { "type": "Point", "coordinates": [ 60.5688934, 56.8495369 ] } },
{ "type": "Feature", "properties": { "leisure": "sports_centre", "name": "Powerhouse Gym", "sport": "fitness", "capacity": 1000 }, "geometry": { "type": "Point", "coordinates": [ 60.5909042, 56.835266 ] } },
{ "type": "Feature", "properties": { "leisure": "sports_centre", "name": "Академия ушу", "sport": null, "capacity": 1000 }, "geometry": { "type": "Point", "coordinates": [ 60.6564688, 56.8463557 ] } },
{ "type": "Feature", "properties": { "leisure": "sports_centre", "name": "Gymnasium", "sport": null, "capacity": 1000 }, "geometry": { "type": "Point", "coordinates": [ 60.6565567, 56.8467269 ] } },
{ "type": "Feature", "properties": { "leisure": "sports_centre", "name": "Лыжная база", "sport": null, "capacity": 1000 }, "geometry": { "type": "Point", "coordinates": [ 60.640055, 56.8131664 ] } },
{ "type": "Feature", "properties": { "leisure": "sports_centre", "name": "Прокатут", "sport": "shooting", "capacity": 1000 }, "geometry": { "type": "Point", "coordinates": [ 60.5302115, 56.796973 ] } },
{ "type": "Feature", "properties": { "leisure": "sports_centre", "name": "Купол", "sport": "shooting", "capacity": 1000 }, "geometry": { "type": "Point", "coordinates": [ 60.6885427, 56.839059 ] } },
{ "type": "Feature", "properties": { "leisure": "sports_centre", "name": "Ход Конём", "sport": "chess", "capacity": 1000 }, "geometry": { "type": "Point", "coordinates": [ 60.5036596, 56.7904938 ] } },
{ "type": "Feature", "properties": { "leisure": "sports_centre", "name": "Поляна", "sport": null, "capacity": 1000 }, "geometry": { "type": "Point", "coordinates": [ 60.637978, 56.8859169 ] } },
{ "type": "Feature", "properties": { "leisure": "sports_centre", "name": "Ход Конём", "sport": "chess", "capacity": 1000 }, "geometry": { "type": "Point", "coordinates": [ 60.5444663, 56.7839838 ] } },
{ "type": "Feature", "properties": { "leisure": "sports_centre", "name": "Классик", "sport": "tennis", "capacity": 1000 }, "geometry": { "type": "Point", "coordinates": [ 60.5478161, 56.7795034 ] } },
{ "type": "Feature", "properties": { "leisure": "sports_centre", "name": "Детский клуб на Репина", "sport": null, "capacity": 1000 }, "geometry": { "type": "Point", "coordinates": [ 60.5436426, 56.8214337 ] } },
{ "type": "Feature", "properties": { "leisure": "sports_centre", "name": "Край света", "sport": "climbing", "capacity": 1000 }, "geometry": { "type": "Point", "coordinates": [ 60.6093929, 56.8405063 ] } },
{ "type": "Feature", "properties": { "leisure": "sports_centre", "name": "Аэротруба Free Fly", "sport": null, "capacity": 1000 }, "geometry": { "type": "Point", "coordinates": [ 60.6455879, 56.7719917 ] } },
{ "type": "Feature", "properties": { "leisure": "sports_centre", "name": "Clinch", "sport": "boxing", "capacity": 1000 }, "geometry": { "type": "Point", "coordinates": [ 60.5786884, 56.8439729 ] } },
{ "type": "Feature", "properties": { "leisure": "sports_centre", "name": "Pro Гибкость", "sport": "yoga", "capacity": 1000 }, "geometry": { "type": "Point", "coordinates": [ 60.6177656, 56.819684 ] } },
{ "type": "Feature", "properties": { "leisure": "sports_centre", "name": "Lady Stretch", "sport": null, "capacity": 1000 }, "geometry": { "type": "Point", "coordinates": [ 60.6016052, 56.8084264 ] } },
{ "type": "Feature", "properties": { "leisure": "sports_centre", "name": "Move", "sport": null, "capacity": 1000 }, "geometry": { "type": "Point", "coordinates": [ 60.493842, 56.795149 ] } },
{ "type": "Feature", "properties": { "leisure": "sports_centre", "name": "Вверх", "sport": "climbing", "capacity": 1000 }, "geometry": { "type": "Point", "coordinates": [ 60.6310564, 56.8169004 ] } },
{ "type": "Feature", "properties": { "leisure": "sports_centre", "name": "Чемпион", "sport": "multi", "capacity": 1000 }, "geometry": { "type": "Point", "coordinates": [ 60.6350148, 56.8152593 ] } },
{ "type": "Feature", "properties": { "leisure": "sports_centre", "name": "RCC", "sport": null, "capacity": 1000 }, "geometry": { "type": "Point", "coordinates": [ 60.5925125, 56.8477457 ] } },
{ "type": "Feature", "properties": { "leisure": "sports_centre", "name": "Turba", "sport": "karting", "capacity": 1000 }, "geometry": { "type": "Point", "coordinates": [ 60.5702148, 56.7161242 ] } },
{ "type": "Feature", "properties": { "leisure": "sports_centre", "name": "Martyanova School Tennis", "sport": null, "capacity": 1000 }, "geometry": { "type": "Point", "coordinates": [ 60.6552708, 56.8366169 ] } },
{ "type": "Feature", "properties": { "leisure": "sports_centre", "name": "Martyanova School Tennis", "sport": null, "capacity": 1000 }, "geometry": { "type": "Point", "coordinates": [ 60.5505092, 56.8396217 ] } },
{ "type": "Feature", "properties": { "leisure": "sports_centre", "name": "Секвойя парк", "sport": "climbing_adventure", "capacity": 1000 }, "geometry": { "type": "Point", "coordinates": [ 60.6485385, 56.7745598 ] } },
{ "type": "Feature", "properties": { "leisure": "sports_centre", "name": "Спортивная база Кировского района", "sport": null, "capacity": 1000 }, "geometry": { "type": "Point", "coordinates": [ 60.6844288, 56.8507894 ] } },
{ "type": "Feature", "properties": { "leisure": "sports_centre", "name": "Академия единоборств РМК", "sport": "fitness;multi", "capacity": 1000 }, "geometry": { "type": "Point", "coordinates": [ 60.5919837, 56.8185664 ] } },
{ "type": "Feature", "properties": { "leisure": "sports_centre", "name": "Rock and Wall", "sport": "climbing", "capacity": 1000 }, "geometry": { "type": "Point", "coordinates": [ 60.5813696, 56.8276908 ] } },
{ "type": "Feature", "properties": { "leisure": "sports_centre", "name": "Край света", "sport": "climbing", "capacity": 1000 }, "geometry": { "type": "Point", "coordinates": [ 60.624546, 56.8211375 ] } },
{ "type": "Feature", "properties": { "leisure": "sports_centre", "name": "КСК Янтарь", "sport": "horse_racing", "capacity": 1000 }, "geometry": { "type": "Point", "coordinates": [ 60.655673172705306, 56.80372155 ] } },
{ "type": "Feature", "properties": { "leisure": "sports_centre", "name": "Юность", "sport": null, "capacity": 1000 }, "geometry": { "type": "Point", "coordinates": [ 60.598779601733284, 56.82567885 ] } },
{ "type": "Feature", "properties": { "leisure": "sports_centre", "name": "Уральская футбольная академия", "sport": "soccer", "capacity": 1000 }, "geometry": { "type": "Point", "coordinates": [ 60.579583595720052, 56.89379485 ] } },
{ "type": "Feature", "properties": { "leisure": "sports_centre", "name": "Зимний стадион \"Уралмаш\"", "sport": "athletics", "capacity": 1000 }, "geometry": { "type": "Point", "coordinates": [ 60.575124193695046, 56.8945647 ] } },
{ "type": "Feature", "properties": { "leisure": "sports_centre", "name": "Детско-юношеская школа олимпийского резерва", "sport": "skating", "capacity": 1000 }, "geometry": { "type": "Point", "coordinates": [ 60.596524317660709, 56.8912712 ] } },
{ "type": "Feature", "properties": { "leisure": "sports_centre", "name": null, "sport": null, "capacity": 1000 }, "geometry": { "type": "Point", "coordinates": [ 60.630264154337752, 56.8856659 ] } },
{ "type": "Feature", "properties": { "leisure": "sports_centre", "name": "Дельфин", "sport": "multi", "capacity": 1000 }, "geometry": { "type": "Point", "coordinates": [ 60.534772503331723, 56.86772325 ] } },
{ "type": "Feature", "properties": { "leisure": "sports_centre", "name": null, "sport": null, "capacity": 1000 }, "geometry": { "type": "Point", "coordinates": [ 60.579109833576645, 56.89445925 ] } },
{ "type": "Feature", "properties": { "leisure": "sports_centre", "name": "ДЮСШ \"Виктория\"", "sport": null, "capacity": 1000 }, "geometry": { "type": "Point", "coordinates": [ 60.643397928815688, 56.84049555 ] } },
{ "type": "Feature", "properties": { "leisure": "sports_centre", "name": "Зал тяжелой атлетики", "sport": "weightlifting;bodybuilding", "capacity": 1000 }, "geometry": { "type": "Point", "coordinates": [ 60.657697115905535, 56.83948975 ] } },
{ "type": "Feature", "properties": { "leisure": "sports_centre", "name": "Зал бокса", "sport": "wrestling", "capacity": 1000 }, "geometry": { "type": "Point", "coordinates": [ 60.6577042, 56.83934535 ] } },
{ "type": "Feature", "properties": { "leisure": "sports_centre", "name": "Манеж УПИ", "sport": "athletics", "capacity": 1000 }, "geometry": { "type": "Point", "coordinates": [ 60.654288242073164, 56.83894365 ] } },
{ "type": "Feature", "properties": { "leisure": "sports_centre", "name": "КРК Уралец", "sport": "ice_hockey", "capacity": 1000 }, "geometry": { "type": "Point", "coordinates": [ 60.59420726799631, 56.8172403 ] } },
{ "type": "Feature", "properties": { "leisure": "sports_centre", "name": "Спортивный комплекс игровых видов спорта УрФУ", "sport": "basketball;volleyball;handball", "capacity": 1000 }, "geometry": { "type": "Point", "coordinates": [ 60.654919098400065, 56.8375635 ] } },
{ "type": "Feature", "properties": { "leisure": "sports_centre", "name": "Физкуьтурно-оздоровительный комплекс УрФУ", "sport": null, "capacity": 1000 }, "geometry": { "type": "Point", "coordinates": [ 60.658236392386954, 56.83848125 ] } },
{ "type": "Feature", "properties": { "leisure": "sports_centre", "name": null, "sport": "soccer", "capacity": 1000 }, "geometry": { "type": "Point", "coordinates": [ 60.618611558578287, 56.83443785 ] } },
{ "type": "Feature", "properties": { "leisure": "sports_centre", "name": "Центр спортивной подготовки спортивных сборных команд Свердловской области", "sport": null, "capacity": 1000 }, "geometry": { "type": "Point", "coordinates": [ 60.547136841891259, 56.8402666 ] } },
{ "type": "Feature", "properties": { "leisure": "sports_centre", "name": null, "sport": null, "capacity": 1000 }, "geometry": { "type": "Point", "coordinates": [ 60.812936151517803, 56.75594695 ] } },
{ "type": "Feature", "properties": { "leisure": "sports_centre", "name": "Дом Спорта УГГУ", "sport": null, "capacity": 1000 }, "geometry": { "type": "Point", "coordinates": [ 60.604121873509456, 56.81780585 ] } },
{ "type": "Feature", "properties": { "leisure": "sports_centre", "name": "Лыжная база «Нижне-Исетская»", "sport": "skiing", "capacity": 1000 }, "geometry": { "type": "Point", "coordinates": [ 60.679625570960859, 56.7405751 ] } },
{ "type": "Feature", "properties": { "leisure": "sports_centre", "name": null, "sport": "gymnastics", "capacity": 1000 }, "geometry": { "type": "Point", "coordinates": [ 60.621508706140077, 56.89143705 ] } },
{ "type": "Feature", "properties": { "leisure": "sports_centre", "name": null, "sport": "skiing", "capacity": 1000 }, "geometry": { "type": "Point", "coordinates": [ 60.649960376310098, 56.89378325 ] } },
{ "type": "Feature", "properties": { "leisure": "sports_centre", "name": null, "sport": null, "capacity": 1000 }, "geometry": { "type": "Point", "coordinates": [ 60.643869427082329, 56.8950622 ] } },
{ "type": "Feature", "properties": { "leisure": "sports_centre", "name": null, "sport": "skiing", "capacity": 1000 }, "geometry": { "type": "Point", "coordinates": [ 60.650361340252843, 56.8925297 ] } },
{ "type": "Feature", "properties": { "leisure": "sports_centre", "name": null, "sport": null, "capacity": 1000 }, "geometry": { "type": "Point", "coordinates": [ 60.606102633020306, 56.91244065 ] } },
{ "type": "Feature", "properties": { "leisure": "sports_centre", "name": null, "sport": "fitness", "capacity": 1000 }, "geometry": { "type": "Point", "coordinates": [ 60.661732, 56.8237204 ] } },
{ "type": "Feature", "properties": { "leisure": "sports_centre", "name": null, "sport": null, "capacity": 1000 }, "geometry": { "type": "Point", "coordinates": [ 60.645875738039869, 56.7921574 ] } },
{ "type": "Feature", "properties": { "leisure": "sports_centre", "name": "Дворец игровых видов спорта", "sport": "volleyball;basketball", "capacity": 1000 }, "geometry": { "type": "Point", "coordinates": [ 60.59689419581801, 56.84711025 ] } },
{ "type": "Feature", "properties": { "leisure": "sports_centre", "name": "Биатлон", "sport": "skiing", "capacity": 1000 }, "geometry": { "type": "Point", "coordinates": [ 60.435450683140246, 56.83136895 ] } },
{ "type": "Feature", "properties": { "leisure": "sports_centre", "name": "Спортивный комплекс УрФУ", "sport": "soccer;basketball;athletics;fitness;volleyball;rugby_union", "capacity": 1000 }, "geometry": { "type": "Point", "coordinates": [ 60.654254465796718, 56.83832845 ] } },
{ "type": "Feature", "properties": { "leisure": "sports_centre", "name": "Центр ГТО", "sport": null, "capacity": 1000 }, "geometry": { "type": "Point", "coordinates": [ 60.686488251872888, 56.84209225 ] } },
{ "type": "Feature", "properties": { "leisure": "sports_centre", "name": "СОК \"Arena\"", "sport": "athletics", "capacity": 1000 }, "geometry": { "type": "Point", "coordinates": [ 60.607639541313667, 56.8995877 ] } },
{ "type": "Feature", "properties": { "leisure": "sports_centre", "name": "Чкаловский", "sport": null, "capacity": 1000 }, "geometry": { "type": "Point", "coordinates": [ 60.603646771320662, 56.7688167 ] } },
{ "type": "Feature", "properties": { "leisure": "sports_centre", "name": "ФОК Соболь", "sport": null, "capacity": 1000 }, "geometry": { "type": "Point", "coordinates": [ 60.5818791, 56.7924681 ] } },
{ "type": "Feature", "properties": { "leisure": "sports_centre", "name": "Ратиборец", "sport": null, "capacity": 1000 }, "geometry": { "type": "Point", "coordinates": [ 60.596019515338639, 56.813692 ] } },
{ "type": "Feature", "properties": { "leisure": "sports_centre", "name": "Футбольный манеж \"Урал\"", "sport": null, "capacity": 1000 }, "geometry": { "type": "Point", "coordinates": [ 60.578577448869922, 56.89255225 ] } },
{ "type": "Feature", "properties": { "leisure": "sports_centre", "name": "Физкультурно-оздоровительный комплекс \"Факел\"", "sport": "skating;hockey", "capacity": 1000 }, "geometry": { "type": "Point", "coordinates": [ 60.76803437140984, 56.79363335 ] } },
{ "type": "Feature", "properties": { "leisure": "sports_centre", "name": "АЙС, физкультурно-оздоровительный комплекс", "sport": null, "capacity": 1000 }, "geometry": { "type": "Point", "coordinates": [ 60.644483749711014, 56.79303225 ] } },
{ "type": "Feature", "properties": { "leisure": "sports_centre", "name": "Дельфинарий", "sport": null, "capacity": 1000 }, "geometry": { "type": "Point", "coordinates": [ 60.645032398289032, 56.79253935 ] } },
{ "type": "Feature", "properties": { "leisure": "sports_centre", "name": "Эльф парк", "sport": "climbing_adventure", "capacity": 1000 }, "geometry": { "type": "Point", "coordinates": [ 60.531625361708002, 56.79743385 ] } },
{ "type": "Feature", "properties": { "leisure": "sports_centre", "name": "Аватар", "sport": "climbing_adventure", "capacity": 1000 }, "geometry": { "type": "Point", "coordinates": [ 60.516514960398354, 56.78586935 ] } },
{ "type": "Feature", "properties": { "leisure": "sports_centre", "name": "Академия тенниса", "sport": null, "capacity": 1000 }, "geometry": { "type": "Point", "coordinates": [ 60.523639183572243, 56.776681 ] } },
{ "type": "Feature", "properties": { "leisure": "sports_centre", "name": "ФОК", "sport": null, "capacity": 1000 }, "geometry": { "type": "Point", "coordinates": [ 60.503796631103128, 56.784524 ] } },
{ "type": "Feature", "properties": { "leisure": "sports_centre", "name": null, "sport": null, "capacity": 1000 }, "geometry": { "type": "Point", "coordinates": [ 60.525220256485468, 56.7775972 ] } },
{ "type": "Feature", "properties": { "leisure": "sports_centre", "name": "Казаки-разбойники", "sport": null, "capacity": 1000 }, "geometry": { "type": "Point", "coordinates": [ 60.708438099494515, 56.84595285 ] } },
{ "type": "Feature", "properties": { "leisure": "sports_centre", "name": "Веревочный парк", "sport": null, "capacity": 1000 }, "geometry": { "type": "Point", "coordinates": [ 60.657443394616735, 56.91284645 ] } },
{ "type": "Feature", "properties": { "leisure": "sports_centre", "name": null, "sport": "shooting", "capacity": 1000 }, "geometry": { "type": "Point", "coordinates": [ 60.435944779518465, 56.8324101 ] } },
{ "type": "Feature", "properties": { "leisure": "sports_centre", "name": "Межшкольный стадион", "sport": "soccer;basketball;athletics;volleyball", "capacity": 1000 }, "geometry": { "type": "Point", "coordinates": [ 60.674183237428764, 56.8365102 ] } },
{ "type": "Feature", "properties": { "leisure": "sports_centre", "name": "RCC Gym", "sport": "fitness;multi", "capacity": 1000 }, "geometry": { "type": "Point", "coordinates": [ 60.517222023934252, 56.81621895 ] } }
]
}
