{
"type": "FeatureCollection",
"name": "university",
"crs": { "type": "name", "properties": { "name": "urn:ogc:def:crs:OGC:1.3:CRS84" } },
"features": [
{ "type": "Feature", "properties": { "amenity": "university", "landuse": null, "name": "Уральская государственная медицинская академия", "capacity": 3000 }, "geometry": { "type": "Point", "coordinates": [ 60.5651504, 56.8324033 ] } },
{ "type": "Feature", "properties": { "amenity": "university", "landuse": null, "name": "Уральский институт бизнеса им. И. А. Ильина", "capacity": 3000 }, "geometry": { "type": "Point", "coordinates": [ 60.5883481, 56.8313732 ] } },
{ "type": "Feature", "properties": { "amenity": "university", "landuse": null, "name": "УрФУ, Институт госуправления и предпринимательства", "capacity": 3000 }, "geometry": { "type": "Point", "coordinates": [ 60.5902839, 56.837269 ] } },
{ "type": "Feature", "properties": { "amenity": "university", "landuse": null, "name": "Университет связи", "capacity": 3000 }, "geometry": { "type": "Point", "coordinates": [ 60.5657862, 56.8280169 ] } },
{ "type": "Feature", "properties": { "amenity": "university", "landuse": null, "name": "Гуманитарный университет", "capacity": 3000 }, "geometry": { "type": "Point", "coordinates": [ 60.662837, 56.8483948 ] } },
{ "type": "Feature", "properties": { "amenity": "university", "landuse": null, "name": "УрГУ", "capacity": 3000 }, "geometry": { "type": "Point", "coordinates": [ 60.6132396, 56.8171515 ] } },
{ "type": "Feature", "properties": { "amenity": "university", "landuse": null, "name": "Театральный институт", "capacity": 3000 }, "geometry": { "type": "Point", "coordinates": [ 60.593732, 56.8389429 ] } },
{ "type": "Feature", "properties": { "amenity": "university", "landuse": null, "name": "Екатеринбургская академия современного искусства", "capacity": 3000 }, "geometry": { "type": "Point", "coordinates": [ 60.6514996, 56.8357899 ] } },
{ "type": "Feature", "properties": { "amenity": "university", "landuse": null, "name": "Уральская государственная архитектурно-художественная академия", "capacity": 3000 }, "geometry": { "type": "Point", "coordinates": [ 60.6100458, 56.8402561 ] } },
{ "type": "Feature", "properties": { "amenity": "university", "landuse": null, "name": "Уральский финансово-юридический институт", "capacity": 3000 }, "geometry": { "type": "Point", "coordinates": [ 60.6116628, 56.8358922 ] } },
{ "type": "Feature", "properties": { "amenity": "university", "landuse": null, "name": "ФГБОУ ВО Уральский ГАУ", "capacity": 3000 }, "geometry": { "type": "Point", "coordinates": [ 60.6191029, 56.8178699 ] } },
{ "type": "Feature", "properties": { "amenity": "university", "landuse": null, "name": "Уральский государственный медицинский университет, Кафедра ортопедической стоматологии (4-ый учебный корпус)", "capacity": 3000 }, "geometry": { "type": "Point", "coordinates": [ 60.5887453, 56.8364687 ] } },
{ "type": "Feature", "properties": { "amenity": "university", "landuse": null, "name": "Екатеринбургская академия современного искусства (ЕАСИ)", "capacity": 3000 }, "geometry": { "type": "Point", "coordinates": [ 60.5865962, 56.8869887 ] } },
{ "type": "Feature", "properties": { "amenity": "university", "landuse": "education", "name": "Российский государственный профессионально-педагогический университет", "capacity": 3000 }, "geometry": { "type": "Point", "coordinates": [ 60.60008992032499, 56.88591135 ] } },
{ "type": "Feature", "properties": { "amenity": "university", "landuse": "education", "name": "УрФУ", "capacity": 3000 }, "geometry": { "type": "Point", "coordinates": [ 60.618618234009531, 56.82794915 ] } },
{ "type": "Feature", "properties": { "amenity": "university", "landuse": "education", "name": "Уральская государственная консерватория", "capacity": 3000 }, "geometry": { "type": "Point", "coordinates": [ 60.599743490662242, 56.83747505 ] } },
{ "type": "Feature", "properties": { "amenity": "university", "landuse": null, "name": "Машиностроительный колледж;РГППУ корпус №12", "capacity": 3000 }, "geometry": { "type": "Point", "coordinates": [ 60.602976833476689, 56.8859083 ] } },
{ "type": "Feature", "properties": { "amenity": "university", "landuse": "education", "name": "УрГЭУ-СИНХ", "capacity": 3000 }, "geometry": { "type": "Point", "coordinates": [ 60.602275905726856, 56.82570835 ] } },
{ "type": "Feature", "properties": { "amenity": "university", "landuse": null, "name": "Уральский федеральный университет имени первого Президента России Б.Н. Ельцина", "capacity": 3000 }, "geometry": { "type": "Point", "coordinates": [ 60.654107558022822, 56.8439725 ] } },
{ "type": "Feature", "properties": { "amenity": "university", "landuse": null, "name": "ХТИ/ИнМИТ УрФУ", "capacity": 3000 }, "geometry": { "type": "Point", "coordinates": [ 60.64811549063478, 56.84207815 ] } },
{ "type": "Feature", "properties": { "amenity": "university", "landuse": null, "name": "ИРИТ-РТФ УрФУ", "capacity": 3000 }, "geometry": { "type": "Point", "coordinates": [ 60.650874738858548, 56.8406939 ] } },
{ "type": "Feature", "properties": { "amenity": "university", "landuse": null, "name": "ИСиА УрФУ", "capacity": 3000 }, "geometry": { "type": "Point", "coordinates": [ 60.650680714116106, 56.8452778 ] } },
{ "type": "Feature", "properties": { "amenity": "university", "landuse": null, "name": "ИСиА УрФУ (пристрой)", "capacity": 3000 }, "geometry": { "type": "Point", "coordinates": [ 60.651861623888244, 56.8450185 ] } },
{ "type": "Feature", "properties": { "amenity": "university", "landuse": null, "name": "ФТИ УрФУ", "capacity": 3000 }, "geometry": { "type": "Point", "coordinates": [ 60.651909902125126, 56.8422201 ] } },
{ "type": "Feature", "properties": { "amenity": "university", "landuse": null, "name": "УралЭНИН УрФУ (учебный корпус №8)", "capacity": 3000 }, "geometry": { "type": "Point", "coordinates": [ 60.655402310850057, 56.8423588 ] } },
{ "type": "Feature", "properties": { "amenity": "university", "landuse": "education", "name": "Уральский лесотехнический университет", "capacity": 3000 }, "geometry": { "type": "Point", "coordinates": [ 60.66988158696627, 56.8165466 ] } },
{ "type": "Feature", "properties": { "amenity": "university", "landuse": null, "name": "Екатеринбургское высшее артиллерийское командное училище", "capacity": 3000 }, "geometry": { "type": "Point", "coordinates": [ 60.665396649603537, 56.770036 ] } },
{ "type": "Feature", "properties": { "amenity": "university", "landuse": null, "name": "Уральский институт экономики, управления и права", "capacity": 3000 }, "geometry": { "type": "Point", "coordinates": [ 60.623026834566623, 56.83126115 ] } },
{ "type": "Feature", "properties": { "amenity": "university", "landuse": null, "name": "Уральский государственный горный университет (УГГУ)", "capacity": 3000 }, "geometry": { "type": "Point", "coordinates": [ 60.596050300697009, 56.82602525 ] } },
{ "type": "Feature", "properties": { "amenity": "university", "landuse": "education", "name": "УрГУПС", "capacity": 3000 }, "geometry": { "type": "Point", "coordinates": [ 60.57631486228432, 56.84977885 ] } },
{ "type": "Feature", "properties": { "amenity": "university", "landuse": "education", "name": "Уральская государственная медицинская академия", "capacity": 3000 }, "geometry": { "type": "Point", "coordinates": [ 60.574104537934673, 56.80156 ] } },
{ "type": "Feature", "properties": { "amenity": "university", "landuse": "education", "name": "Уральский аграрный университет", "capacity": 3000 }, "geometry": { "type": "Point", "coordinates": [ 60.611732418221479, 56.84377405 ] } },
{ "type": "Feature", "properties": { "amenity": "university", "landuse": null, "name": "Уральский государственный медицинский университет", "capacity": 3000 }, "geometry": { "type": "Point", "coordinates": [ 60.614973995550343, 56.8241137 ] } },
{ "type": "Feature", "properties": { "amenity": "university", "landuse": null, "name": "Институт физической культуры УрФУ", "capacity": 3000 }, "geometry": { "type": "Point", "coordinates": [ 60.652909513016844, 56.83873105 ] } },
{ "type": "Feature", "properties": { "amenity": "university", "landuse": "education", "name": "Уральский государственный лесотехнический университет", "capacity": 3000 }, "geometry": { "type": "Point", "coordinates": [ 60.662847861221579, 56.82255485 ] } },
{ "type": "Feature", "properties": { "amenity": "university", "landuse": "education", "name": "Гуманитарный Университет", "capacity": 3000 }, "geometry": { "type": "Point", "coordinates": [ 60.618983033577805, 56.86148345 ] } },
{ "type": "Feature", "properties": { "amenity": "university", "landuse": null, "name": "Химико-фармацевтический центр УрФУ", "capacity": 3000 }, "geometry": { "type": "Point", "coordinates": [ 60.652911060566062, 56.84227015 ] } },
{ "type": "Feature", "properties": { "amenity": "university", "landuse": "education", "name": "Уральский государственный медицинский университет", "capacity": 3000 }, "geometry": { "type": "Point", "coordinates": [ 60.57631831490194, 56.8329946 ] } },
{ "type": "Feature", "properties": { "amenity": "university", "landuse": "education", "name": "НИИ охраны материнства и младенчества", "capacity": 3000 }, "geometry": { "type": "Point", "coordinates": [ 60.576223777806746, 56.8342184 ] } },
{ "type": "Feature", "properties": { "amenity": "university", "landuse": "education", "name": "Институт экономики и управления УрФУ", "capacity": 3000 }, "geometry": { "type": "Point", "coordinates": [ 60.611213829192224, 56.83180585 ] } },
{ "type": "Feature", "properties": { "amenity": "university", "landuse": "education", "name": "Уральский государственный юридический университет", "capacity": 3000 }, "geometry": { "type": "Point", "coordinates": [ 60.570437681773186, 56.84834615 ] } },
{ "type": "Feature", "properties": { "amenity": "university", "landuse": "education", "name": "УрЮИ МВД РФ", "capacity": 3000 }, "geometry": { "type": "Point", "coordinates": [ 60.655827371326481, 56.8922456 ] } },
{ "type": "Feature", "properties": { "amenity": "university", "landuse": "education", "name": "Уральский государственный юридический университет", "capacity": 3000 }, "geometry": { "type": "Point", "coordinates": [ 60.657351679080392, 56.8502934 ] } },
{ "type": "Feature", "properties": { "amenity": "university", "landuse": "education", "name": "РГППУ", "capacity": 3000 }, "geometry": { "type": "Point", "coordinates": [ 60.636232987189231, 56.9049222 ] } }
]
}
